{"type":"FeatureCollection","features":[{"type":"Feature","properties":{"marker-color":"#7e7e7e","marker-size":"medium","marker-symbol":"","stroke":"#000000","name":"JRE Noshiromitane Solar Power Plant","description":"Located at Noshiro city / Mitane town, Akita, this solar plant is able to generate around 17,100,000kWh annually. Commercial Operation Date: December 26th, 2017"},"geometry":{"type":"Point","coordinates":[140.09394943714142,40.08111703212306]}},{"type":"Feature","properties":{"marker-color":"#7e7e7e","marker-size":"medium","marker-symbol":"","name":"Rokunohe Solar Park","description":"Located at Rokunohe town, Aomori, this solar plant is able to generate around 26,000,000kWh annually. Commercial Operation Date: August 1st, 2017","stroke":"#000000"},"geometry":{"type":"Point","coordinates":[141.32652640342712,40.65584222258632]}},{"type":"Feature","properties":{"marker-color":"#7e7e7e","marker-size":"medium","marker-symbol":"","name":"JRE Takamori Solar Power Plant","description":"Located at Shichinohe town, Aomori, this solar plant is able to generate around 3,270,000kWh annually. Commercial Operation Date: September 1st, 2017","stroke":""},"geometry":{"type":"Point","coordinates":[141.131449341774,40.7386405913415]}},{"type":"Feature","properties":{"marker-color":"#7e7e7e","marker-size":"medium","marker-symbol":"","name":"JRE Takamori Solar Power Plant","description":"Located at Hachinohe City, Aomori, this solar plant is able to generate around 1,170,000kWh annually. Commercial Operation Date: August 6th, 2014"},"geometry":{"type":"Point","coordinates":[141.557223200798,40.474383078738455]}},{"type":"Feature","properties":{"marker-color":"#7e7e7e","marker-size":"medium","marker-symbol":"","name":"JRE Sakata Wind Farm","description":"Located at Sakata City, Yamagata, this wind farm is able to generate around 37,600,000kWh annually. Commercial Operation Date: April 1st, 2014"},"geometry":{"type":"Point","coordinates":[139.82497215270996,38.96928580496617]}},{"type":"Feature","properties":{"marker-color":"#7e7e7e","marker-size":"medium","marker-symbol":"","name":"Sakata Port Mega Solar Park","description":"Located at Sakata City, Yamagata, this solar plant is able to generate around 30,000,000kWh annually. Commercial Operation Date: December 1st, 2016"},"geometry":{"type":"Point","coordinates":[139.82741832733154,38.96368010198575]}},{"type":"Feature","properties":{"marker-color":"#7e7e7e","marker-size":"medium","marker-symbol":"","name":"JRE Iwadeyama Solar Power Plant","description":"Located at Osaki City, Miyagi, this solar plant is able to generate around 1,860,000kWh annually. Commercial Operation Date: February 28th, 2014"},"geometry":{"type":"Point","coordinates":[140.91117024421692,38.67468031633356]}},{"type":"Feature","properties":{"marker-color":"#7e7e7e","marker-size":"medium","marker-symbol":"","name":"JRE Osato Solar Power Plant","description":"Located at Osato town, Miyagi, this solar plant is able to generate around 1,430,000kWh annually. Commercial Operation Date: February 28th, 2014"},"geometry":{"type":"Point","coordinates":[140.99377155303955,38.39979663000095]}},{"type":"Feature","properties":{"marker-color":"#7e7e7e","marker-size":"medium","marker-symbol":"","name":"Nishinosato Solar Park","description":"Located at Nishigo village, Fukushima, this solar plant is able to generate around 47,300,000kWh annually. Commercial Operation Date: January 2nd, 2020"},"geometry":{"type":"Point","coordinates":[140.0727868080139,37.148618790991364]}}]}